[
  {
    "arena":"TD Garden",
    "abbr" : "bos",
    "city":"Boston",
    "colors":{ "0":"#009E60", "1":"#000000" },
    "conf":"Eastern",
    "div":"Atlantic",
    "location":"Boston",
    "name":"Celtics",
    "teamId": 1610612738,
    "state":"Massachusetts"
  },
  {
    "arena":"Barclays Center",
    "abbr" : "bk",
    "city":"Brooklyn",
    "colors":{ "0":"#000000" },
    "conf":"Eastern",
    "div":"Atlantic",
    "location":"Brooklyn",
    "name":"Nets",
    "teamId": 1610612751,
    "state":"New York"
  },
  {
    "arena":"Madison Square Garden",
    "abbr" : "ny",
    "city":"Manhattan",
    "colors":{ "0":"#0953A0", "1":"#FF7518", "2":"#C0C0C0" },
    "conf":"Eastern",
    "div":"Atlantic",
    "location":"New York",
    "name":"Knicks",
    "teamId": 1610612752,
    "state":"New York"
  },
  {
    "arena":"Wells Fargo Center",
    "abbr" : "phi",
    "city":"Philadelphia",
    "colors":{ "0":"#0046AD", "1":"#D0103A" },
    "conf":"Eastern",
    "div":"Atlantic",
    "location":"Philadelphia",
    "name":"76ers",
    "teamId": 1610612755,
    "state":"Pennsylvania"
  },
  {
    "arena":"Air Canada Centre",
    "abbr" : "tor",
    "city":"Toronto",
    "colors":{ "0":"#B31B1B", "1":"#000000", "2":"#708090" },
    "conf":"Eastern",
    "div":"Atlantic",
    "location":"Toronto",
    "name":"Raptors",
    "teamId": 1610612761,
    "state":"Ontario"
  },
  {
    "arena":"United Center",
    "abbr" : "chi",
    "city":"Chicago",
    "colors":{ "0":"#D4001F", "1":"#000000" },
    "conf":"Eastern",
    "div":"Central Division",
    "location":"Chicago",
    "name":"Bulls",
    "teamId": 1610612741,
    "state":"Illinois"
  },
  {
    "arena":"Quicken Loans Arena",
    "abbr" : "cle",
    "city":"Cleveland",
    "colors":{ "0":"#860038", "1":"#FDBB30", "2":"#002D62" },
    "conf":"Eastern",
    "div":"Central Division",
    "location":"Cleveland",
    "name":"Cavaliers",
    "teamId": 1610612739,
    "state":"Ohio"
  },
  {
    "arena":"The Palace of Auburn Hills",
    "abbr" : "det",
    "city":"Auburn Hills",
    "colors":{ "0":"#00519A", "1":"#EB003C", "2":"#041e40" },
    "conf":"Eastern",
    "div":"Central Division",
    "location":"Detroit",
    "name":"Pistons",
    "teamId": 1610612765,
    "state":"Michigan"
  },
  {
    "arena":"Bankers Life Fieldhouse",
    "abbr" : "ind",
    "city":"Indianapolis",
    "colors":{ "0":"#092C57", "1":"#FFC322", "2":"#C0C0C0" },
    "conf":"Eastern",
    "div":"Central Division",
    "location":"Indiana",
    "name":"Pacers",
    "teamId": 1610612754,
    "state":"Indiana"
  },
  {
    "arena":"BMO Harris Bradley Center",
    "abbr" : "mil",
    "city":"Milwaukee",
    "colors":{ "0":"#003614", "1":"#E32636", "2":"#C0C0C0" },
    "conf":"Eastern",
    "div":"Central Division",
    "location":"Milwaukee",
    "name":"Bucks",
    "teamId": 1610612749,
    "state":"Wisconsin"
  },
  {
    "arena":"Philips Arena",
    "abbr" : "atl",
    "city":"Atlanta",
    "colors":{ "0":"#000080", "1":"#FF0000", "2":"#C0C0C0" },
    "conf":"Eastern",
    "div":"Southeast Division",
    "location":"Atlanta",
    "name":"Hawks",
    "teamId": 1610612737,
    "state":"Georgia"
  },
  {
    "arena":"Time Warner Cable Arena",
    "abbr" : "cha",
    "city":"Charlotte",
    "colors":{ "0":"#1D1160", "1":"#008CA8", "2":"#A1A1A4" },
    "conf":"Eastern",
    "div":"Southeast Division",
    "location":"Charlotte",
    "name":"Hornets",
    "teamId": 1610612766,
    "state":"North Carolina"
  },
  {
    "arena":"American Airlines Arena",
    "abbr" : "mia",
    "city":"Miami",
    "colors":{ "0":"#000000", "1":"#B62630", "2":"#FF9F00" },
    "conf":"Eastern",
    "div":"Southeast Division",
    "location":"Miami",
    "name":"Heat",
    "teamId": 1610612748,
    "state":"Florida"
  },
  {
    "arena":"Amway Center",
    "abbr" : "orl",
    "city":"Orlando",
    "colors":{ "0":"#0047AB", "1":"#000000", "2":"#708090" },
    "conf":"Eastern",
    "div":"Southeast Division",
    "location":"Orlando",
    "name":"Magic",
    "teamId": 1610612753,
    "state":"Florida"
  },
  {
    "arena":"Verizon Center",
    "abbr" : "was",
    "city":"Washington",
    "colors":{ "0":"#C60C30", "1":"#002244", "2":"#BCC4CC" },
    "conf":"Eastern",
    "div":"Southeast Division",
    "location":"Washington",
    "name":"Wizards",
    "teamId": 1610612764,
    "state":"D.C."
  },
  {
    "arena":"Pepsi Center",
    "abbr" : "den",
    "city":"Denver",
    "colors":{ "0":"#4b90CD", "1":"#FDB827", "2":"#002D62" },
    "conf":"Western",
    "div":"Northwest Division",
    "location":"Denver",
    "name":"Nuggets",
    "teamId": 1610612743,
    "state":"Colorado"
  },
  {
    "arena":"Target Center",
    "abbr" : "min",
    "city":"Minneapolis",
    "colors":{ "0":"#0F4D92", "1":"#000000", "2":"#8C92AC", "3":"#50C878" },
    "conf":"Western",
    "div":"Northwest Division",
    "location":"Minnesota",
    "name":"Timberwolves",
    "teamId": 1610612750,
    "state":"Minnesota"
  },
  {
    "arena":"Chesapeake Energy Arena",
    "abbr" : "okc",
    "city":"Oklahoma City",
    "colors":{ "0":"#007DC3", "1":"#F05133", "2":"#FDBB30", "3":"#002D62" },
    "conf":"Western",
    "div":"Northwest Division",
    "location":"Oklahoma City",
    "name":"Thunder",
    "teamId": 1610612760,
    "state":"Oklahoma"
  },
  {
    "arena":"Moda Center",
    "abbr" : "por",
    "city":"Portland",
    "colors":{ "0":"#F0163A", "1":"#B6BFBF", "2":"#000000" },
    "conf":"Western",
    "div":"Northwest Division",
    "location":"Portland",
    "name":"Trail Blazers",
    "teamId": 1610612757,
    "state":"Oregon"
  },
  {
    "arena":"EnergySolutions Arena",
    "abbr" : "slc",
    "city":"Salt Lake City",
    "colors":{ "0":"#00275D", "1":"#FF9100", "2":"#0D4006", "3":"#B5B5B5" },
    "conf":"Western",
    "div":"Northwest Division",
    "location":"Utah",
    "name":"Jazz",
    "teamId": 1610612762,
    "state":"Utah"
  },
  {
    "arena":"Oracle Arena",
    "abbr" : "gs",
    "city":"Oakland",
    "colors":{ "0":"#04529C", "1":"#FFCC33" },
    "conf":"Western",
    "div":"Pacific Division",
    "location":"Golden State",
    "name":"Warriors",
    "teamId": 1610612744,
    "state":"California"
  },
  {
    "arena":"Staples Center",
    "abbr" : "lac",
    "city":"Los Angeles",
    "colors":{ "0":"#EE2944", "1":"#146AA2" },
    "conf":"Western",
    "div":"Pacific Division",
    "location":"Los Angeles",
    "name":"Clippers",
    "teamId": 1610612746,
    "state":"California"
  },
  {
    "arena":"Staples Center",
    "abbr" : "lal",
    "city":"Los Angeles",
    "colors":{ "0":"#4A2583", "1":"#F5AF1B" },
    "conf":"Western",
    "div":"Pacific Division",
    "location":"Los Angeles",
    "name":"Lakers",
    "teamId": 1610612747,
    "state":"California"
  },
  {
    "arena":"Talking Stick Resort Arena",
    "abbr" : "phx",
    "city":"Phoenix",
    "colors":{ "0":"#1C105E", "1":"#E65F20", "2":"#000000", "3":"#B1B3B3" },
    "conf":"Western",
    "div":"Pacific Division",
    "location":"Phoenix",
    "name":"Suns",
    "teamId": 1610612756,
    "state":"Arizona"
  },
  {
    "arena":"Sleep Train Arena",
    "abbr" : "sac",
    "city":"Sacramento",
    "colors":{ "0":"#753BBD", "1":"#000000", "2":"#8A8D8F" },
    "conf":"Western",
    "div":"Pacific Division",
    "location":"Sacramento",
    "name":"Kings",
    "teamId": 1610612758,
    "state":"California"
  },
  {
    "arena":"American Airlines Center",
    "abbr" : "dal",
    "city":"Dallas",
    "colors":{ "0":"#0b60AD", "1":"#072156", "2":"#A9A9A9" },
    "conf":"Western",
    "div":"Southwest Division",
    "location":"Dallas",
    "name":"Mavericks",
    "teamId": 1610612742,
    "state":"Texas"
  },
  {
    "arena":"Toyota Center",
    "abbr" : "hou",
    "city":"Houston",
    "colors":{ "0":"#CE1138", "1":"#CCCCCC", "2":"#000000" },
    "conf":"Western",
    "div":"Southwest Division",
    "location":"Houston",
    "name":"Rockets",
    "teamId": 1610612745,
    "state":"Texas"
  },
  {
    "arena":"FedExForum",
    "abbr" : "mem",
    "city":"Memphis, Tennessee",
    "colors":{ "0":"#001F70", "1":"#7399C6", "2":"#BED4E9", "3":"#FDB927" },
    "conf":"Western",
    "div":"Southwest Division",
    "location":"Memphis",
    "name":"Grizzlies",
    "teamId": 1610612763,
    "state":"Tennessee"
  },
  {
    "arena":"Smoothie King Center",
    "abbr" : "no",
    "city":"New Orleans",
    "colors":{ "0":"#002B5C", "1":"#B4975A", "2":"#E31836" },
    "conf":"Western",
    "div":"Southwest Division",
    "location":"New Orleans",
    "name":"Pelicans",
    "teamId": 1610612740,
    "state":"Louisiana"
  },
  {
    "arena":"AT&T Center",
    "abbr" : "sa",
    "city":"San Antonio",
    "colors":{ "0":"#000000", "1":"#BEC8C9" },
    "conf":"Western",
    "div":"Southwest Division",
    "location":"San Antonio",
    "name":"Spurs",
    "teamId": 1610612759,
    "state":"Texas"
  }
]
